pk,identificador_tarifa,identificador_plaza,identificador_plazas,identificador_zona,nombre,descripcion_entidad,barrio,punto_observ_id,tipo,codigo_postal,horario,servicio,actividad_regular,parent_equipamiento_municipal_id,longitud,latitud
parking-zgz-001,esro-azul,permiso-rotacion,count-001,1-esro,Parking Calle San Jorge,"Zona Azul Zaragoza - Rotación corta.",casco-historico,sensor-zgz-01,parking-superficie,50001,"Mo-Fr 09:00-14:00, 17:00-20:00; Sa 09:00-14:00",wifi,exhibition,mun-zgz-01,-0.87652,41.65215
parking-mad-101,ser-azul-distrito4,plaza-azul,count-m-101,ser-salamanca,Parking Calle Serrano,"SER Madrid - Zona Azul de rotación en Distrito Salamanca.",salamanca,obs-mad-99,parking-superficie,28001,"Mo-Fr 09:00-21:00; Sa 09:00-15:00",none,culturalcenteract,mun-mad-04,-3.68832,40.42512
parking-mad-102,ser-verde-distrito3,plaza-verde,count-m-102,ser-retiro,Parking Calle Alfonso XII,"SER Madrid - Zona Verde preferente residentes frente al Retiro.",retiro,obs-mad-100,parking-superficie,28014,"Mo-Fr 09:00-21:00; Sa 09:00-15:00",none,exhibition,mun-mad-03,-3.68911,40.41325
parking-mad-103,tarifa-p-reducida,plaza-electrico,count-m-103,madrid-central,Parking Público Plaza Mayor,"Parking municipal subterráneo con puntos de recarga eléctrica.",centro,obs-mad-101,parking-subterraneo,28012,24/7,cafeteria,none,mun-mad-01,-3.70732,40.41535
parking-zgz-002,esre-naranja,permiso-residente,count-002,1-esre,Parking Calle Mayor,"Zona Naranja Zaragoza - Preferente residentes.",casco-historico,sensor-zgz-02,parking-superficie,50001,"Mo-Fr 09:00-14:00, 17:00-20:00; Sa 09:00-14:00",phonesupport,workshop,mun-zgz-01,-0.87531,41.65382